[{"time":"02/11 07:07","latitude":"23.95","longitude":"121.57","amgnitude":"3.3","depth":"  9.9","location":"花蓮縣政府西南方  6.9  公里 (位於花蓮縣吉安鄉)\n","url":"ECL0211070733.htm"},{"time":"02/11 06:27","latitude":"23.93","longitude":"121.58","amgnitude":"3.7","depth":" 20.8","location":"花蓮縣政府西南方  7.4  公里 (位於花蓮縣吉安鄉)\n","url":"ECL0211062737.htm"},{"time":"02/11 06:11","latitude":"23.90","longitude":"121.44","amgnitude":"3.3","depth":" 17.2","location":"花蓮縣政府西偏南方  21.0  公里 (位於花蓮縣秀林鄉)\n","url":"ECL0211061133.htm"},{"time":"02/11 04:53","latitude":"24.04","longitude":"121.60","amgnitude":"3.0","depth":"  7.7","location":"花蓮縣政府北偏西方  6.1  公里 (位於花蓮縣新城鄉)\n","url":"ECL0211045330.htm"},{"time":"02/11 01:55","latitude":"23.99","longitude":"121.58","amgnitude":"3.7","depth":"  9.4","location":"花蓮縣政府西方  4.0  公里 (位於花蓮縣吉安鄉)\n","url":"ECL0211015537.htm"},{"time":"02/11 00:26","latitude":"23.95","longitude":"121.57","amgnitude":"2.8","depth":" 10.0","location":"花蓮縣政府西南方  7.0  公里 (位於花蓮縣吉安鄉)\n","url":"ECL0211002628.htm"},{"time":"02/11 00:25","latitude":"23.96","longitude":"121.58","amgnitude":"3.6","depth":"  9.9","location":"花蓮縣政府西南方  5.2  公里 (位於花蓮縣吉安鄉)\n","url":"ECL0211002536.htm"},{"time":"02/10 20:14","latitude":"23.93","longitude":"121.57","amgnitude":"3.0","depth":"  5.9","location":"花蓮縣政府西南方  9.0  公里 (位於花蓮縣吉安鄉)\n","url":"ECL0210201430.htm"},{"time":"02/10 18:37","latitude":"24.20","longitude":"121.68","amgnitude":"3.4","depth":"  7.1","location":"花蓮縣政府北偏東方  23.6  公里 (位於花蓮縣近海)\n","url":"ECL0210183734.htm"},{"time":"02/10 18:15","latitude":"24.15","longitude":"121.58","amgnitude":"3.4","depth":"  5.0","location":"花蓮縣政府北偏西方  18.3  公里 (位於花蓮縣秀林鄉)\n","url":"ECL0210181534.htm"},{"time":"02/10 18:09","latitude":"24.18","longitude":"121.70","amgnitude":"3.6","depth":" 11.9","location":"花蓮縣政府北偏東方  22.3  公里 (位於花蓮縣近海)\n","url":"ECL0210180936.htm"},{"time":"02/10 16:42","latitude":"24.01","longitude":"121.56","amgnitude":"3.5","depth":"  6.0","location":"花蓮縣政府西偏北方  5.9  公里 (位於花蓮縣秀林鄉)\n","url":"ECL0210164235.htm"},{"time":"02/10 15:48","latitude":"24.23","longitude":"121.81","amgnitude":"4.3","depth":"  9.3","location":"花蓮縣政府東北方  32.9  公里 (位於臺灣東部海域)\n","url":"EC0210154843059.htm"},{"time":"02/10 15:37","latitude":"23.99","longitude":"121.58","amgnitude":"3.5","depth":"  5.0","location":"花蓮縣政府西方  3.6  公里 (位於花蓮縣吉安鄉)\n","url":"ECL0210153735.htm"},{"time":"02/10 15:10","latitude":"24.16","longitude":"121.75","amgnitude":"4.0","depth":"  5.4","location":"花蓮縣政府東北方  23.1  公里 (位於花蓮縣近海)\n","url":"ECL0210151040.htm"}]