[{"time":"02/10 20:14","latitude":"23.93","longitude":"121.57","amgnitude":"3.0","depth":"  5.9","location":"花蓮縣政府西南方  9.0  公里 (位於花蓮縣吉安鄉)\n","url":"ECL0210201430.htm"},{"time":"02/10 18:37","latitude":"24.20","longitude":"121.68","amgnitude":"3.4","depth":"  7.1","location":"花蓮縣政府北偏東方  23.6  公里 (位於花蓮縣近海)\n","url":"ECL0210183734.htm"},{"time":"02/10 18:15","latitude":"24.15","longitude":"121.58","amgnitude":"3.4","depth":"  5.0","location":"花蓮縣政府北偏西方  18.3  公里 (位於花蓮縣秀林鄉)\n","url":"ECL0210181534.htm"},{"time":"02/10 18:09","latitude":"24.18","longitude":"121.70","amgnitude":"3.6","depth":" 11.9","location":"花蓮縣政府北偏東方  22.3  公里 (位於花蓮縣近海)\n","url":"ECL0210180936.htm"},{"time":"02/10 16:42","latitude":"24.01","longitude":"121.56","amgnitude":"3.5","depth":"  6.0","location":"花蓮縣政府西偏北方  5.9  公里 (位於花蓮縣秀林鄉)\n","url":"ECL0210164235.htm"},{"time":"02/10 15:48","latitude":"24.23","longitude":"121.81","amgnitude":"4.3","depth":"  9.3","location":"花蓮縣政府東北方  32.9  公里 (位於臺灣東部海域)\n","url":"EC0210154843059.htm"},{"time":"02/10 15:37","latitude":"23.99","longitude":"121.58","amgnitude":"3.5","depth":"  5.0","location":"花蓮縣政府西方  3.6  公里 (位於花蓮縣吉安鄉)\n","url":"ECL0210153735.htm"},{"time":"02/10 15:10","latitude":"24.16","longitude":"121.75","amgnitude":"4.0","depth":"  5.4","location":"花蓮縣政府東北方  23.1  公里 (位於花蓮縣近海)\n","url":"ECL0210151040.htm"},{"time":"02/10 14:44","latitude":"24.05","longitude":"121.57","amgnitude":"3.1","depth":"  4.8","location":"花蓮縣政府西北方  7.9  公里 (位於花蓮縣秀林鄉)\n","url":"ECL0210144431.htm"},{"time":"02/10 13:55","latitude":"24.03","longitude":"121.61","amgnitude":"3.2","depth":"  8.2","location":"花蓮縣政府北方  4.8  公里 (位於花蓮縣新城鄉)\n","url":"ECL0210135532.htm"},{"time":"02/10 13:16","latitude":"24.02","longitude":"121.61","amgnitude":"3.3","depth":"  7.0","location":"花蓮縣政府北偏西方  3.4  公里 (位於花蓮縣新城鄉)\n","url":"ECL0210131633.htm"},{"time":"02/10 11:59","latitude":"23.90","longitude":"121.55","amgnitude":"3.1","depth":"  9.5","location":"花蓮縣政府西南方  12.4  公里 (位於花蓮縣壽豐鄉)\n","url":"ECL0210115931.htm"},{"time":"02/10 11:56","latitude":"23.91","longitude":"121.54","amgnitude":"3.6","depth":"  8.0","location":"花蓮縣政府西南方  12.0  公里 (位於花蓮縣壽豐鄉)\n","url":"ECL0210115636.htm"},{"time":"02/10 10:24","latitude":"24.02","longitude":"121.59","amgnitude":"3.4","depth":" 15.6","location":"花蓮縣政府西北方  4.5  公里 (位於花蓮縣新城鄉)\n","url":"ECL0210102434.htm"},{"time":"02/10 09:31","latitude":"23.99","longitude":"121.56","amgnitude":"2.8","depth":" 10.2","location":"花蓮縣政府西方  6.5  公里 (位於花蓮縣吉安鄉)\n","url":"ECL0210093128.htm"}]